{"SUFFOLK": {"type": "FeatureCollection", "features": [{"type": "Feature", "id": "01", "properties": {"name": "AMAGANSETT FREE LIBRARY", "employee_hours": 210.0, "librarians": 4.38}, "geometry": {"type": "Point", "coordinates": [-72.1410032, 40.9754272]}}, {"type": "Feature", "id": "01", "properties": {"name": "AMITYVILLE PUBLIC LIBRARY", "employee_hours": 682.4, "librarians": 7.66}, "geometry": {"type": "Point", "coordinates": [-73.411212, 40.685926]}}, {"type": "Feature", "id": "01", "properties": {"name": "BABYLON SCHOOL DISTRICT PUBLIC LIBRARY", "employee_hours": 857.6, "librarians": 7.44}, "geometry": {"type": "Point", "coordinates": [-73.325535, 40.695019]}}, {"type": "Feature", "id": "01", "properties": {"name": "SOUTH COUNTRY LIBRARY", "employee_hours": 665.1999999999999, "librarians": 9.63}, "geometry": {"type": "Point", "coordinates": [-72.939582, 40.758206]}}, {"type": "Feature", "id": "01", "properties": {"name": "BAYPORT-BLUE POINT PUBLIC LIBRARY", "employee_hours": 416.0, "librarians": 8.34}, "geometry": {"type": "Point", "coordinates": [-73.0368284, 40.7499074]}}, {"type": "Feature", "id": "01", "properties": {"name": "CONNETQUOT PUBLIC LIBRARY", "employee_hours": 1225.2, "librarians": 19.69}, "geometry": {"type": "Point", "coordinates": [-73.1173289, 40.7600253]}}, {"type": "Feature", "id": "01", "properties": {"name": "BRENTWOOD PUBLIC LIBRARY", "employee_hours": 1750.0, "librarians": 26.26}, "geometry": {"type": "Point", "coordinates": [-73.2469694, 40.7783266]}}, {"type": "Feature", "id": "01", "properties": {"name": "THE HAMPTON LIBRARY IN BRIDGEHAMPTON", "employee_hours": 227.60000000000002, "librarians": 5.26}, "geometry": {"type": "Point", "coordinates": [-72.3074954, 40.9350484]}}, {"type": "Feature", "id": "01", "properties": {"name": "BAY SHORE-BRIGHTWATERS PUBLIC LIBRARY", "employee_hours": 643.1999999999999, "librarians": 7.88}, "geometry": {"type": "Point", "coordinates": [-73.25822, 40.713575]}}, {"type": "Feature", "id": "01", "properties": {"name": "BROOKHAVEN FREE LIBRARY", "employee_hours": 210.0, "librarians": 4.38}, "geometry": {"type": "Point", "coordinates": [-72.912239, 40.773698]}}, {"type": "Feature", "id": "01", "properties": {"name": "BAITING HOLLOW FREE LIBRARY", "employee_hours": 3.5999999999999996, "librarians": 0.26}, "geometry": {"type": "Point", "coordinates": [-72.7349827, 40.9579475]}}, {"type": "Feature", "id": "01", "properties": {"name": "CENTER MORICHES FREE PUBLIC LIBRARY", "employee_hours": 660.0, "librarians": 9.0}, "geometry": {"type": "Point", "coordinates": [-72.7884446, 40.7999829]}}, {"type": "Feature", "id": "01", "properties": {"name": "MIDDLE COUNTRY PUBLIC LIBRARY", "employee_hours": 3379.6, "librarians": 36.07}, "geometry": {"type": "Point", "coordinates": [-73.0792138, 40.8644433]}}, {"type": "Feature", "id": "01", "properties": {"name": "CENTRAL ISLIP PUBLIC LIBRARY", "employee_hours": 1715.2, "librarians": 9.62}, "geometry": {"type": "Point", "coordinates": [-73.196031, 40.7954821]}}, {"type": "Feature", "id": "01", "properties": {"name": "COLD SPRING HARBOR VILLAGE IMPROVEMENT SOCIETY LIBRARY", "employee_hours": 398.0, "librarians": 10.57}, "geometry": {"type": "Point", "coordinates": [-73.4618719, 40.8669565]}}, {"type": "Feature", "id": "01", "properties": {"name": "COMMACK PUBLIC LIBRARY DISTRICT", "employee_hours": 883.1999999999999, "librarians": 7.87}, "geometry": {"type": "Point", "coordinates": [-73.295168, 40.828582]}}, {"type": "Feature", "id": "01", "properties": {"name": "COPIAGUE MEMORIAL PUBLIC LIBRARY", "employee_hours": 1172.3999999999999, "librarians": 6.56}, "geometry": {"type": "Point", "coordinates": [-73.402526, 40.670219]}}, {"type": "Feature", "id": "01", "properties": {"name": "CUTCHOGUE NEW SUFFOLK FREE LIBRARY", "employee_hours": 527.2, "librarians": 6.01}, "geometry": {"type": "Point", "coordinates": [-72.486308, 41.0091115]}}, {"type": "Feature", "id": "01", "properties": {"name": "DEER PARK PUBLIC LIBRARY", "employee_hours": 596.0, "librarians": 11.59}, "geometry": {"type": "Point", "coordinates": [-73.3228161, 40.7602462]}}, {"type": "Feature", "id": "01", "properties": {"name": "HALF HOLLOW HILLS COMMUNITY PUBLIC LIBRARY", "employee_hours": 1806.8000000000002, "librarians": 27.04}, "geometry": {"type": "Point", "coordinates": [-73.359704, 40.803795]}}, {"type": "Feature", "id": "01", "properties": {"name": "EAST HAMPTON LIBRARY", "employee_hours": 516.4, "librarians": 9.17}, "geometry": {"type": "Point", "coordinates": [-72.181791, 40.972053]}}, {"type": "Feature", "id": "01", "properties": {"name": "EAST ISLIP PUBLIC LIBRARY", "employee_hours": 731.5999999999999, "librarians": 10.06}, "geometry": {"type": "Point", "coordinates": [-73.1723682, 40.7352401]}}, {"type": "Feature", "id": "01", "properties": {"name": "FISHERS ISLAND LIBRARY ASSOCIATION", "employee_hours": 7.199999999999999, "librarians": 0.35}, "geometry": {"type": "Point", "coordinates": [-72.016682, 41.270669]}}, {"type": "Feature", "id": "01", "properties": {"name": "HARBORFIELDS PUBLIC LIBRARY", "employee_hours": 966.4, "librarians": 12.94}, "geometry": {"type": "Point", "coordinates": [-73.365941, 40.8718175]}}, {"type": "Feature", "id": "01", "properties": {"name": "FLOYD MEMORIAL LIBRARY", "employee_hours": 192.39999999999998, "librarians": 3.5}, "geometry": {"type": "Point", "coordinates": [-72.362053, 41.106216]}}, {"type": "Feature", "id": "01", "properties": {"name": "HAMPTON BAYS PUBLIC LIBRARY", "employee_hours": 542.4, "librarians": 10.06}, "geometry": {"type": "Point", "coordinates": [-72.520075, 40.873]}}, {"type": "Feature", "id": "01", "properties": {"name": "SACHEM PUBLIC LIBRARY", "employee_hours": 1945.6, "librarians": 35.67}, "geometry": {"type": "Point", "coordinates": [-73.0895676, 40.8178516]}}, {"type": "Feature", "id": "01", "properties": {"name": "HUNTINGTON PUBLIC LIBRARY", "employee_hours": 1403.6000000000001, "librarians": 19.21}, "geometry": {"type": "Point", "coordinates": [-73.430112, 40.87079]}}, {"type": "Feature", "id": "01", "properties": {"name": "SOUTH HUNTINGTON PUBLIC LIBRARY", "employee_hours": 926.8000000000001, "librarians": 13.04}, "geometry": {"type": "Point", "coordinates": [-73.3894149, 40.8226336]}}, {"type": "Feature", "id": "01", "properties": {"name": "ISLIP PUBLIC LIBRARY", "employee_hours": 722.0, "librarians": 10.54}, "geometry": {"type": "Point", "coordinates": [-73.214175, 40.726585]}}, {"type": "Feature", "id": "01", "properties": {"name": "LINDENHURST MEMORIAL LIBRARY", "employee_hours": 980.0, "librarians": 10.94}, "geometry": {"type": "Point", "coordinates": [-73.367823, 40.682858]}}, {"type": "Feature", "id": "01", "properties": {"name": "MATTITUCK-LAUREL LIBRARY", "employee_hours": 455.20000000000005, "librarians": 7.0}, "geometry": {"type": "Point", "coordinates": [-72.530596, 40.992627]}}, {"type": "Feature", "id": "01", "properties": {"name": "LONGWOOD PUBLIC LIBRARY", "employee_hours": 1435.2, "librarians": 21.88}, "geometry": {"type": "Point", "coordinates": [-72.942742, 40.882987]}}, {"type": "Feature", "id": "01", "properties": {"name": "MONTAUK LIBRARY", "employee_hours": 280.0, "librarians": 1.76}, "geometry": {"type": "Point", "coordinates": [-71.939145, 41.037993]}}, {"type": "Feature", "id": "01", "properties": {"name": "NORTH BABYLON PUBLIC LIBRARY", "employee_hours": 687.6, "librarians": 7.7}, "geometry": {"type": "Point", "coordinates": [-73.3227431, 40.7248838]}}, {"type": "Feature", "id": "01", "properties": {"name": "NORTHPORT PUBLIC LIBRARY", "employee_hours": 2012.4, "librarians": 28.0}, "geometry": {"type": "Point", "coordinates": [-73.337105, 40.896274]}}, {"type": "Feature", "id": "01", "properties": {"name": "PATCHOGUE-MEDFORD LIBRARY", "employee_hours": 1890.0, "librarians": 23.63}, "geometry": {"type": "Point", "coordinates": [-73.0135, 40.765666]}}, {"type": "Feature", "id": "01", "properties": {"name": "PORT JEFFERSON FREE LIBRARY", "employee_hours": 525.2, "librarians": 9.41}, "geometry": {"type": "Point", "coordinates": [-73.066782, 40.946977]}}, {"type": "Feature", "id": "01", "properties": {"name": "COMSEWOGUE PUBLIC LIBRARY", "employee_hours": 1085.2, "librarians": 19.69}, "geometry": {"type": "Point", "coordinates": [-73.052701, 40.923845]}}, {"type": "Feature", "id": "01", "properties": {"name": "QUOGUE LIBRARY", "employee_hours": 490.0, "librarians": 1.75}, "geometry": {"type": "Point", "coordinates": [-72.598825, 40.8188]}}, {"type": "Feature", "id": "01", "properties": {"name": "RIVERHEAD FREE LIBRARY", "employee_hours": 1085.2, "librarians": 10.06}, "geometry": {"type": "Point", "coordinates": [-72.668879, 40.918204]}}, {"type": "Feature", "id": "01", "properties": {"name": "JOHN JERMAIN MEMORIAL LIBRARY", "employee_hours": 175.2, "librarians": 3.5}, "geometry": {"type": "Point", "coordinates": [-72.296699, 40.997595]}}, {"type": "Feature", "id": "01", "properties": {"name": "SAYVILLE LIBRARY", "employee_hours": 846.0, "librarians": 10.42}, "geometry": {"type": "Point", "coordinates": [-73.0857341, 40.7378674]}}, {"type": "Feature", "id": "01", "properties": {"name": "EMMA S. CLARK MEMORIAL LIBRARY", "employee_hours": 1130.8, "librarians": 15.9}, "geometry": {"type": "Point", "coordinates": [-73.110963, 40.945216]}}, {"type": "Feature", "id": "01", "properties": {"name": "SHELTER ISLAND PUBLIC LIBRARY SOCIETY", "employee_hours": 245.2, "librarians": 2.63}, "geometry": {"type": "Point", "coordinates": [-72.339093, 41.068701]}}, {"type": "Feature", "id": "01", "properties": {"name": "MASTICS-MORICHES-SHIRLEY COMMUNITY LIB", "employee_hours": 2660.0, "librarians": 25.38}, "geometry": {"type": "Point", "coordinates": [-72.8650126, 40.7807804]}}, {"type": "Feature", "id": "01", "properties": {"name": "NORTH SHORE PUBLIC LIBRARY DISTRICT", "employee_hours": 702.8, "librarians": 11.04}, "geometry": {"type": "Point", "coordinates": [-72.884922, 40.945411]}}, {"type": "Feature", "id": "01", "properties": {"name": "SMITHTOWN SPECIAL LIBRARY DISTRICT", "employee_hours": 2894.0, "librarians": 30.63}, "geometry": {"type": "Point", "coordinates": [-73.158903, 40.83739]}}, {"type": "Feature", "id": "01", "properties": {"name": "ROGERS MEMORIAL LIBRARY", "employee_hours": 948.8, "librarians": 13.13}, "geometry": {"type": "Point", "coordinates": [-72.393409, 40.88546]}}, {"type": "Feature", "id": "01", "properties": {"name": "SOUTHOLD FREE LIBRARY", "employee_hours": 280.0, "librarians": 5.69}, "geometry": {"type": "Point", "coordinates": [-72.4286969, 41.0640174]}}, {"type": "Feature", "id": "01", "properties": {"name": "WEST BABYLON PUBLIC LIBRARY", "employee_hours": 840.0, "librarians": 12.69}, "geometry": {"type": "Point", "coordinates": [-73.358748, 40.709787]}}, {"type": "Feature", "id": "01", "properties": {"name": "WEST ISLIP PUBLIC LIBRARY", "employee_hours": 1041.2, "librarians": 9.36}, "geometry": {"type": "Point", "coordinates": [-73.3071403, 40.6974508]}}, {"type": "Feature", "id": "01", "properties": {"name": "WESTHAMPTON FREE LIBRARY", "employee_hours": 834.8000000000001, "librarians": 15.32}, "geometry": {"type": "Point", "coordinates": [-72.6383462, 40.8055706]}}, {"type": "Feature", "id": "01", "properties": {"name": "WYANDANCH PUBLIC LIBRARY", "employee_hours": 640.0, "librarians": 6.0}, "geometry": {"type": "Point", "coordinates": [-73.363784, 40.748797]}}, {"type": "Feature", "id": "01", "properties": {"name": "ELWOOD PUBLIC LIBRARY", "employee_hours": 350.0, "librarians": 6.13}, "geometry": {"type": "Point", "coordinates": [-73.331876, 40.838084]}}, {"type": "Feature", "id": "01", "properties": {"name": "HAUPPAUGE PUBLIC LIBRARY", "employee_hours": 560.0, "librarians": 8.75}, "geometry": {"type": "Point", "coordinates": [-73.208924, 40.823201]}}]}, "NASSAU": {"type": "FeatureCollection", "features": [{"type": "Feature", "id": "01", "properties": {"name": "SHELTER ROCK PUBLIC LIBRARY", "employee_hours": 932.0, "librarians": 10.87}, "geometry": {"type": "Point", "coordinates": [-73.656739, 40.762993]}}, {"type": "Feature", "id": "01", "properties": {"name": "BALDWIN PUBLIC LIBRARY", "employee_hours": 1295.2, "librarians": 12.54}, "geometry": {"type": "Point", "coordinates": [-73.6113293, 40.6528461]}}, {"type": "Feature", "id": "01", "properties": {"name": "BAYVILLE FREE LIBRARY", "employee_hours": 140.0, "librarians": 2.42}, "geometry": {"type": "Point", "coordinates": [-73.5664388, 40.9097934]}}, {"type": "Feature", "id": "01", "properties": {"name": "BELLMORE MEMORIAL LIBRARY", "employee_hours": 592.0, "librarians": 7.1}, "geometry": {"type": "Point", "coordinates": [-73.526807, 40.6676]}}, {"type": "Feature", "id": "01", "properties": {"name": "BETHPAGE PUBLIC LIBRARY", "employee_hours": 525.2, "librarians": 9.8}, "geometry": {"type": "Point", "coordinates": [-73.4773866, 40.7430273]}}, {"type": "Feature", "id": "01", "properties": {"name": "EAST MEADOW PUBLIC LIBRARY", "employee_hours": 1550.0, "librarians": 21.61}, "geometry": {"type": "Point", "coordinates": [-73.5642891, 40.7197567]}}, {"type": "Feature", "id": "01", "properties": {"name": "EAST ROCKAWAY PUBLIC LIBRARY", "employee_hours": 191.6, "librarians": 3.94}, "geometry": {"type": "Point", "coordinates": [-73.665509, 40.6422836]}}, {"type": "Feature", "id": "01", "properties": {"name": "EAST WILLISTON PUBLIC LIBRARY", "employee_hours": 80.0, "librarians": 0.5}, "geometry": {"type": "Point", "coordinates": [-73.638988, 40.756849]}}, {"type": "Feature", "id": "01", "properties": {"name": "ELMONT PUBLIC LIBRARY", "employee_hours": 712.4, "librarians": 11.25}, "geometry": {"type": "Point", "coordinates": [-73.6972604, 40.7070543]}}, {"type": "Feature", "id": "01", "properties": {"name": "FARMINGDALE PUBLIC LIBRARY", "employee_hours": 682.4, "librarians": 12.69}, "geometry": {"type": "Point", "coordinates": [-73.4591749, 40.7290676]}}, {"type": "Feature", "id": "01", "properties": {"name": "FLORAL PARK PUBLIC LIBRARY", "employee_hours": 490.0, "librarians": 5.25}, "geometry": {"type": "Point", "coordinates": [-73.7058081, 40.7250903]}}, {"type": "Feature", "id": "01", "properties": {"name": "FRANKLIN SQUARE PUBLIC LIBRARY", "employee_hours": 525.2, "librarians": 10.07}, "geometry": {"type": "Point", "coordinates": [-73.670664, 40.7074937]}}, {"type": "Feature", "id": "01", "properties": {"name": "FREEPORT MEMORIAL LIBRARY", "employee_hours": 1578.0, "librarians": 14.22}, "geometry": {"type": "Point", "coordinates": [-73.5865437, 40.6530932]}}, {"type": "Feature", "id": "01", "properties": {"name": "GARDEN CITY PUBLIC LIBRARY", "employee_hours": 420.0, "librarians": 8.75}, "geometry": {"type": "Point", "coordinates": [-73.6404041, 40.7238795]}}, {"type": "Feature", "id": "01", "properties": {"name": "GLEN COVE PUBLIC LIBRARY", "employee_hours": 577.6, "librarians": 11.38}, "geometry": {"type": "Point", "coordinates": [-73.6336271, 40.8634831]}}, {"type": "Feature", "id": "01", "properties": {"name": "GREAT NECK LIBRARY", "employee_hours": 1788.4, "librarians": 22.66}, "geometry": {"type": "Point", "coordinates": [-73.74789, 40.798666]}}, {"type": "Feature", "id": "01", "properties": {"name": "HEMPSTEAD PUBLIC LIBRARY", "employee_hours": 535.6, "librarians": 8.93}, "geometry": {"type": "Point", "coordinates": [-73.6244825, 40.7094911]}}, {"type": "Feature", "id": "01", "properties": {"name": "HEWLETT-WOODMERE PUBLIC LIBRARY", "employee_hours": 1123.6, "librarians": 12.86}, "geometry": {"type": "Point", "coordinates": [-73.7018714, 40.6328121]}}, {"type": "Feature", "id": "01", "properties": {"name": "HICKSVILLE FREE PUBLIC LIBRARY", "employee_hours": 1330.0, "librarians": 8.75}, "geometry": {"type": "Point", "coordinates": [-73.523574, 40.762373]}}, {"type": "Feature", "id": "01", "properties": {"name": "ISLAND PARK PUBLIC LIBRARY", "employee_hours": 212.8, "librarians": 4.55}, "geometry": {"type": "Point", "coordinates": [-73.655813, 40.602033]}}, {"type": "Feature", "id": "01", "properties": {"name": "ISLAND TREES PUBLIC LIBRARY", "employee_hours": 354.4, "librarians": 4.68}, "geometry": {"type": "Point", "coordinates": [-73.4998799, 40.7351701]}}, {"type": "Feature", "id": "01", "properties": {"name": "JERICHO PUBLIC LIBRARY", "employee_hours": 981.5999999999999, "librarians": 12.22}, "geometry": {"type": "Point", "coordinates": [-73.535095, 40.792738]}}, {"type": "Feature", "id": "01", "properties": {"name": "LAKEVIEW PUBLIC LIBRARY", "employee_hours": 210.0, "librarians": 5.25}, "geometry": {"type": "Point", "coordinates": [-73.6527949, 40.6739183]}}, {"type": "Feature", "id": "01", "properties": {"name": "PENINSULA PUBLIC LIBRARY", "employee_hours": 630.0, "librarians": 9.63}, "geometry": {"type": "Point", "coordinates": [-73.731948, 40.616341]}}, {"type": "Feature", "id": "01", "properties": {"name": "LEVITTOWN PUBLIC LIBRARY", "employee_hours": 1246.0, "librarians": 17.5}, "geometry": {"type": "Point", "coordinates": [-73.5300771, 40.7228759]}}, {"type": "Feature", "id": "01", "properties": {"name": "LOCUST VALLEY LIBRARY", "employee_hours": 416.4, "librarians": 4.73}, "geometry": {"type": "Point", "coordinates": [-73.5906105, 40.8788439]}}, {"type": "Feature", "id": "01", "properties": {"name": "LONG BEACH PUBLIC LIBRARY", "employee_hours": 1365.2, "librarians": 11.38}, "geometry": {"type": "Point", "coordinates": [-73.6673069, 40.5886389]}}, {"type": "Feature", "id": "01", "properties": {"name": "LYNBROOK PUBLIC LIBRARY", "employee_hours": 362.40000000000003, "librarians": 4.33}, "geometry": {"type": "Point", "coordinates": [-73.6741712, 40.654605]}}, {"type": "Feature", "id": "01", "properties": {"name": "MALVERNE PUBLIC LIBRARY", "employee_hours": 183.6, "librarians": 2.98}, "geometry": {"type": "Point", "coordinates": [-73.67121, 40.676287]}}, {"type": "Feature", "id": "01", "properties": {"name": "MANHASSET PUBLIC LIBRARY", "employee_hours": 805.1999999999999, "librarians": 9.19}, "geometry": {"type": "Point", "coordinates": [-73.695169, 40.794043]}}, {"type": "Feature", "id": "01", "properties": {"name": "MASSAPEQUA PUBLIC LIBRARY", "employee_hours": 1163.1999999999998, "librarians": 12.14}, "geometry": {"type": "Point", "coordinates": [-73.4559779, 40.6640849]}}, {"type": "Feature", "id": "01", "properties": {"name": "MERRICK LIBRARY", "employee_hours": 503.6, "librarians": 11.71}, "geometry": {"type": "Point", "coordinates": [-73.551062, 40.660999]}}, {"type": "Feature", "id": "01", "properties": {"name": "MINEOLA MEMORIAL LIBRARY", "employee_hours": 315.2, "librarians": 6.56}, "geometry": {"type": "Point", "coordinates": [-73.6462469, 40.7439917]}}, {"type": "Feature", "id": "01", "properties": {"name": "HILLSIDE PUBLIC LIBRARY OF NEW HYDE PARK", "employee_hours": 665.1999999999999, "librarians": 7.01}, "geometry": {"type": "Point", "coordinates": [-73.68807, 40.734708]}}, {"type": "Feature", "id": "01", "properties": {"name": "NORTH BELLMORE PUBLIC LIBRARY", "employee_hours": 595.2, "librarians": 10.5}, "geometry": {"type": "Point", "coordinates": [-73.5400489, 40.6820899]}}, {"type": "Feature", "id": "01", "properties": {"name": "NORTH MERRICK PUBLIC LIBRARY", "employee_hours": 575.6, "librarians": 8.26}, "geometry": {"type": "Point", "coordinates": [-73.5690285, 40.6758759]}}, {"type": "Feature", "id": "01", "properties": {"name": "OCEANSIDE LIBRARY", "employee_hours": 719.2, "librarians": 17.07}, "geometry": {"type": "Point", "coordinates": [-73.6412903, 40.6417835]}}, {"type": "Feature", "id": "01", "properties": {"name": "OYSTER BAY-EAST NORWICH PUBLIC LIBRARY", "employee_hours": 491.2, "librarians": 5.92}, "geometry": {"type": "Point", "coordinates": [-73.5267535, 40.8717466]}}, {"type": "Feature", "id": "01", "properties": {"name": "PLAINEDGE PUBLIC LIBRARY", "employee_hours": 1026.8000000000002, "librarians": 5.65}, "geometry": {"type": "Point", "coordinates": [-73.482867, 40.708826]}}, {"type": "Feature", "id": "01", "properties": {"name": "PLAINVIEW-OLD BETHPAGE PUBLIC LIBRARY", "employee_hours": 1135.6, "librarians": 17.54}, "geometry": {"type": "Point", "coordinates": [-73.473546, 40.775495]}}, {"type": "Feature", "id": "01", "properties": {"name": "PORT WASHINGTON PUBLIC LIBRARY", "employee_hours": 1268.8, "librarians": 19.25}, "geometry": {"type": "Point", "coordinates": [-73.6962803, 40.8314199]}}, {"type": "Feature", "id": "01", "properties": {"name": "ROCKVILLE CENTRE PUBLIC LIBRARY", "employee_hours": 875.1999999999999, "librarians": 14.0}, "geometry": {"type": "Point", "coordinates": [-73.6486316, 40.6643886]}}, {"type": "Feature", "id": "01", "properties": {"name": "ROOSEVELT PUBLIC LIBRARY", "employee_hours": 440.0, "librarians": 6.0}, "geometry": {"type": "Point", "coordinates": [-73.588755, 40.675954]}}, {"type": "Feature", "id": "01", "properties": {"name": "BRYANT LIBRARY", "employee_hours": 1041.6, "librarians": 14.21}, "geometry": {"type": "Point", "coordinates": [-73.6486177, 40.7969716]}}, {"type": "Feature", "id": "01", "properties": {"name": "SEA CLIFF VILLAGE LIBRARY", "employee_hours": 97.2, "librarians": 1.73}, "geometry": {"type": "Point", "coordinates": [-73.641455, 40.845396]}}, {"type": "Feature", "id": "01", "properties": {"name": "SEAFORD PUBLIC LIBRARY", "employee_hours": 400.79999999999995, "librarians": 7.88}, "geometry": {"type": "Point", "coordinates": [-73.486868, 40.666812]}}, {"type": "Feature", "id": "01", "properties": {"name": "SYOSSET PUBLIC LIBRARY", "employee_hours": 1060.0, "librarians": 21.14}, "geometry": {"type": "Point", "coordinates": [-73.5027067, 40.7989175]}}, {"type": "Feature", "id": "01", "properties": {"name": "UNIONDALE PUBLIC LIBRARY", "employee_hours": 1155.2, "librarians": 15.75}, "geometry": {"type": "Point", "coordinates": [-73.59259, 40.706476]}}, {"type": "Feature", "id": "01", "properties": {"name": "HENRY WALDINGER MEMORIAL LIBRARY", "employee_hours": 385.20000000000005, "librarians": 5.25}, "geometry": {"type": "Point", "coordinates": [-73.7067645, 40.663987]}}, {"type": "Feature", "id": "01", "properties": {"name": "WANTAGH PUBLIC LIBRARY", "employee_hours": 805.1999999999999, "librarians": 9.63}, "geometry": {"type": "Point", "coordinates": [-73.5109822, 40.6737605]}}, {"type": "Feature", "id": "01", "properties": {"name": "WEST HEMPSTEAD PUBLIC LIBRARY", "employee_hours": 480.79999999999995, "librarians": 11.57}, "geometry": {"type": "Point", "coordinates": [-73.6542809, 40.6961872]}}, {"type": "Feature", "id": "01", "properties": {"name": "WESTBURY MEMORIAL PUBLIC LIBRARY", "employee_hours": 805.1999999999999, "librarians": 9.63}, "geometry": {"type": "Point", "coordinates": [-73.582436, 40.761988]}}, {"type": "Feature", "id": "01", "properties": {"name": "WILLISTON PARK PUBLIC LIBRARY", "employee_hours": 160.0, "librarians": 2.0}, "geometry": {"type": "Point", "coordinates": [-73.646161, 40.761311]}}, {"type": "Feature", "id": "01", "properties": {"name": "GOLD COAST PUBLIC LIBRARY DISTRICT", "employee_hours": 239.60000000000002, "librarians": 7.31}, "geometry": {"type": "Point", "coordinates": [-73.625746, 40.832414]}}]}, "WESTCHESTER": {"type": "FeatureCollection", "features": [{"type": "Feature", "id": "01", "properties": {"name": "ARDSLEY PUBLIC LIBRARY", "employee_hours": 84.0, "librarians": 2.81}, "geometry": {"type": "Point", "coordinates": [-73.8454431, 41.0112796]}}, {"type": "Feature", "id": "01", "properties": {"name": "NORTH CASTLE PUBLIC LIBRARY", "employee_hours": 367.59999999999997, "librarians": 5.25}, "geometry": {"type": "Point", "coordinates": [-73.7263569, 41.129837]}}, {"type": "Feature", "id": "01", "properties": {"name": "BEDFORD FREE LIBRARY", "employee_hours": 26.8, "librarians": 4.74}, "geometry": {"type": "Point", "coordinates": [-73.6431067, 41.2031168]}}, {"type": "Feature", "id": "01", "properties": {"name": "BEDFORD HILLS FREE LIBRARY", "employee_hours": 52.400000000000006, "librarians": 4.38}, "geometry": {"type": "Point", "coordinates": [-73.700375, 41.235719]}}, {"type": "Feature", "id": "01", "properties": {"name": "BRIARCLIFF MANOR PUBLIC LIBRARY", "employee_hours": 91.6, "librarians": 2.41}, "geometry": {"type": "Point", "coordinates": [-73.8247381, 41.1455022]}}, {"type": "Feature", "id": "01", "properties": {"name": "BRONXVILLE PUBLIC LIBRARY", "employee_hours": 244.0, "librarians": 5.36}, "geometry": {"type": "Point", "coordinates": [-73.8305479, 40.9351747]}}, {"type": "Feature", "id": "01", "properties": {"name": "CHAPPAQUA CENTRAL SCH DIST P L", "employee_hours": 733.1999999999999, "librarians": 10.4}, "geometry": {"type": "Point", "coordinates": [-73.77386, 41.154994]}}, {"type": "Feature", "id": "01", "properties": {"name": "CROTON FREE LIBRARY", "employee_hours": 280.0, "librarians": 4.82}, "geometry": {"type": "Point", "coordinates": [-73.8787103, 41.2078975]}}, {"type": "Feature", "id": "01", "properties": {"name": "DOBBS FERRY PUBLIC LIBRARY", "employee_hours": 140.0, "librarians": 7.0}, "geometry": {"type": "Point", "coordinates": [-73.8771273, 41.0130282]}}, {"type": "Feature", "id": "01", "properties": {"name": "EASTCHESTER PUBLIC LIBRARY", "employee_hours": 426.4, "librarians": 6.66}, "geometry": {"type": "Point", "coordinates": [-73.8114099, 40.9569471]}}, {"type": "Feature", "id": "01", "properties": {"name": "GREENBURGH PUBLIC LIBRARY", "employee_hours": 456.0, "librarians": 11.77}, "geometry": {"type": "Point", "coordinates": [-73.807176, 41.047295]}}, {"type": "Feature", "id": "01", "properties": {"name": "HARRISON PUBLIC LIBRARY", "employee_hours": 196.0, "librarians": 6.13}, "geometry": {"type": "Point", "coordinates": [-73.711813, 40.971009]}}, {"type": "Feature", "id": "01", "properties": {"name": "HASTINGS-ON-HUDSON PUBLIC LIBRARY", "employee_hours": 192.39999999999998, "librarians": 4.38}, "geometry": {"type": "Point", "coordinates": [-73.8831424, 40.995607]}}, {"type": "Feature", "id": "01", "properties": {"name": "IRVINGTON PUB LIB GUITEAU FOUNDATION", "employee_hours": 168.0, "librarians": 4.38}, "geometry": {"type": "Point", "coordinates": [-73.8729065, 41.0394454]}}, {"type": "Feature", "id": "01", "properties": {"name": "KATONAH VILLAGE LIBRARY", "employee_hours": 245.2, "librarians": 4.38}, "geometry": {"type": "Point", "coordinates": [-73.6852142, 41.2580797]}}, {"type": "Feature", "id": "01", "properties": {"name": "LARCHMONT PUBLIC LIBRARY", "employee_hours": 448.0, "librarians": 6.83}, "geometry": {"type": "Point", "coordinates": [-73.751272, 40.927409]}}, {"type": "Feature", "id": "01", "properties": {"name": "MAMARONECK PUBLIC LIBRARY DISTRICT", "employee_hours": 350.0, "librarians": 7.88}, "geometry": {"type": "Point", "coordinates": [-73.7328518, 40.9500939]}}, {"type": "Feature", "id": "01", "properties": {"name": "HENDRICK HUDSON FREE LIBRARY", "employee_hours": 166.0, "librarians": 7.06}, "geometry": {"type": "Point", "coordinates": [-73.946214, 41.249826]}}, {"type": "Feature", "id": "01", "properties": {"name": "MOUNT KISCO PUBLIC LIBRARY", "employee_hours": 271.2, "librarians": 3.94}, "geometry": {"type": "Point", "coordinates": [-73.726852, 41.2063564]}}, {"type": "Feature", "id": "01", "properties": {"name": "MOUNT VERNON PUBLIC LIBRARY", "employee_hours": 1435.2, "librarians": 12.69}, "geometry": {"type": "Point", "coordinates": [-73.833414, 40.910045]}}, {"type": "Feature", "id": "01", "properties": {"name": "NEW ROCHELLE PUBLIC LIBRARY", "employee_hours": 720.0, "librarians": 14.0}, "geometry": {"type": "Point", "coordinates": [-73.782728, 40.909359]}}, {"type": "Feature", "id": "01", "properties": {"name": "RUTH KEELER MEMORIAL LIBRARY", "employee_hours": 108.80000000000001, "librarians": 2.19}, "geometry": {"type": "Point", "coordinates": [-73.597463, 41.328838]}}, {"type": "Feature", "id": "01", "properties": {"name": "OSSINING PUBLIC LIBRARY", "employee_hours": 782.0, "librarians": 13.3}, "geometry": {"type": "Point", "coordinates": [-73.83995, 41.168077]}}, {"type": "Feature", "id": "01", "properties": {"name": "THE FIELD LIBRARY", "employee_hours": 386.0, "librarians": 6.98}, "geometry": {"type": "Point", "coordinates": [-73.9219422, 41.2904268]}}, {"type": "Feature", "id": "01", "properties": {"name": "TOWN OF PELHAM PUBLIC LIBRARY", "employee_hours": 197.60000000000002, "librarians": 2.77}, "geometry": {"type": "Point", "coordinates": [-73.814561, 40.902717]}}, {"type": "Feature", "id": "01", "properties": {"name": "MOUNT PLEASANT PUBLIC LIBRARY", "employee_hours": 472.40000000000003, "librarians": 7.44}, "geometry": {"type": "Point", "coordinates": [-73.786296, 41.135551]}}, {"type": "Feature", "id": "01", "properties": {"name": "PORT CHESTER-RYE BROOK PUBLIC LIBRARY", "employee_hours": 500.4, "librarians": 4.99}, "geometry": {"type": "Point", "coordinates": [-73.66904, 41.003746]}}, {"type": "Feature", "id": "01", "properties": {"name": "POUND RIDGE LIBRARY DISTRICT", "employee_hours": 45.599999999999994, "librarians": 3.5}, "geometry": {"type": "Point", "coordinates": [-73.573965, 41.211034]}}, {"type": "Feature", "id": "01", "properties": {"name": "PURCHASE FREE LIBRARY", "employee_hours": 0.0, "librarians": 4.38}, "geometry": {"type": "Point", "coordinates": [-73.7153973, 41.0415396]}}, {"type": "Feature", "id": "01", "properties": {"name": "RYE FREE READING ROOM", "employee_hours": 282.4, "librarians": 6.57}, "geometry": {"type": "Point", "coordinates": [-73.6837963, 40.9809953]}}, {"type": "Feature", "id": "01", "properties": {"name": "SCARSDALE PUBLIC LIBRARY", "employee_hours": 630.0, "librarians": 12.03}, "geometry": {"type": "Point", "coordinates": [-73.788369, 40.998362]}}, {"type": "Feature", "id": "01", "properties": {"name": "THE SOMERS LIBRARY", "employee_hours": 227.60000000000002, "librarians": 5.69}, "geometry": {"type": "Point", "coordinates": [-73.715179, 41.300798]}}, {"type": "Feature", "id": "01", "properties": {"name": "LEWISBORO LIBRARY", "employee_hours": 140.0, "librarians": 2.63}, "geometry": {"type": "Point", "coordinates": [-73.5560021, 41.2756103]}}, {"type": "Feature", "id": "01", "properties": {"name": "WARNER LIBRARY", "employee_hours": 297.6, "librarians": 5.69}, "geometry": {"type": "Point", "coordinates": [-73.8578335, 41.0811927]}}, {"type": "Feature", "id": "01", "properties": {"name": "TUCKAHOE PUBLIC LIBRARY", "employee_hours": 87.6, "librarians": 3.26}, "geometry": {"type": "Point", "coordinates": [-73.8253839, 40.9527509]}}, {"type": "Feature", "id": "01", "properties": {"name": "WHITE PLAINS PUBLIC LIBRARY", "employee_hours": 1015.1999999999999, "librarians": 17.68}, "geometry": {"type": "Point", "coordinates": [-73.770164, 41.030752]}}, {"type": "Feature", "id": "01", "properties": {"name": "YONKERS PUBLIC LIBRARY", "employee_hours": 2640.0, "librarians": 42.0}, "geometry": {"type": "Point", "coordinates": [-73.9020332, 40.935853]}}, {"type": "Feature", "id": "01", "properties": {"name": "JOHN C. HART MEMORIAL LIBRARY", "employee_hours": 500.0, "librarians": 10.31}, "geometry": {"type": "Point", "coordinates": [-73.829748, 41.32954]}}]}}